[
    {
        "city": "Stockholm", 
        "admin": "Stockholm", 
        "country": "Sweden", 
        "population_proper": "1253309", 
        "iso2": "SE", 
        "capital": "primary", 
        "lat": "59.333333", 
        "lng": "18.05", 
        "population": "1264000"
    }, 
    {
        "city": "Glöstorp",
        "admin": "Västra Götaland",
        "country": "Sweden", 
        "population_proper": "504084", 
        "iso2": "SE", 
        "capital": "", 
        "lat": "57.75", 
        "lng": "11.933333", 
        "population": "537797"
    }, 
    {
        "city": "Malmö",
        "admin": "Skåne",
        "country": "Sweden", 
        "population_proper": "261548", 
        "iso2": "SE", 
        "capital": "admin", 
        "lat": "55.6", 
        "lng": "13.0", 
        "population": "269349"
    }, 
    {
        "city": "Uppsala", 
        "admin": "Uppsala", 
        "country": "Sweden", 
        "population_proper": "127734", 
        "iso2": "SE", 
        "capital": "admin", 
        "lat": "59.85", 
        "lng": "17.633333", 
        "population": "133117"
    }, 
    {
        "city": "Västerås",
        "admin": "Västmanland",
        "country": "Sweden", 
        "population_proper": "93179", 
        "iso2": "SE", 
        "capital": "admin", 
        "lat": "59.616667", 
        "lng": "16.55", 
        "population": "107194"
    }, 
    {
        "city": "Örebro",
        "admin": "Örebro",
        "country": "Sweden", 
        "population_proper": "93291", 
        "iso2": "SE", 
        "capital": "admin", 
        "lat": "59.283333", 
        "lng": "15.216667", 
        "population": "98573"
    }, 
    {
        "city": "Linköping",
        "admin": "Östergötland",
        "country": "Sweden", 
        "population_proper": "91491", 
        "iso2": "SE", 
        "capital": "admin", 
        "lat": "58.416667", 
        "lng": "15.616667", 
        "population": "96732"
    }, 
    {
        "city": "Helsingborg", 
        "admin": "Skåne",
        "country": "Sweden", 
        "population_proper": "91025", 
        "iso2": "SE", 
        "capital": "minor", 
        "lat": "56.05", 
        "lng": "12.7", 
        "population": "91304"
    }, 
    {
        "city": "Jönköping",
        "admin": "Jönköping",
        "country": "Sweden", 
        "population_proper": "83202", 
        "iso2": "SE", 
        "capital": "admin", 
        "lat": "57.783333", 
        "lng": "14.183333", 
        "population": "89780"
    }, 
    {
        "city": "Norrköping",
        "admin": "Östergötland",
        "country": "Sweden", 
        "population_proper": "82903", 
        "iso2": "SE", 
        "capital": "minor", 
        "lat": "58.6", 
        "lng": "16.183333", 
        "population": "88639"
    }, 
    {
        "city": "Umeå",
        "admin": "Västerbotten",
        "country": "Sweden", 
        "population_proper": "74005", 
        "iso2": "SE", 
        "capital": "admin", 
        "lat": "63.833333", 
        "lng": "20.25", 
        "population": "78197"
    }, 
    {
        "city": "Bärstad",
        "admin": "Värmland",
        "country": "Sweden", 
        "population_proper": "59266", 
        "iso2": "SE", 
        "capital": "", 
        "lat": "59.333333", 
        "lng": "13.55", 
        "population": "74141"
    }, 
    {
        "city": "Tunadal", 
        "admin": "Västernorrland",
        "country": "Sweden", 
        "population_proper": "48463", 
        "iso2": "SE", 
        "capital": "", 
        "lat": "62.414167", 
        "lng": "17.379444", 
        "population": "73389"
    }, 
    {
        "city": "Gävle",
        "admin": "Gävleborg",
        "country": "Sweden", 
        "population_proper": "67836", 
        "iso2": "SE", 
        "capital": "admin", 
        "lat": "60.666667", 
        "lng": "17.166667", 
        "population": "68635"
    }, 
    {
        "city": "Borås",
        "admin": "Västra Götaland",
        "country": "Sweden", 
        "population_proper": "63223", 
        "iso2": "SE", 
        "capital": "minor", 
        "lat": "57.716667", 
        "lng": "12.916667", 
        "population": "65008"
    }, 
    {
        "city": "Växjö",
        "admin": "Kronoberg", 
        "country": "Sweden", 
        "population_proper": "46535", 
        "iso2": "SE", 
        "capital": "admin", 
        "lat": "56.883333", 
        "lng": "14.816667", 
        "population": "59600"
    }, 
    {
        "city": "Halmstad", 
        "admin": "Halland", 
        "country": "Sweden", 
        "population_proper": "55209", 
        "iso2": "SE", 
        "capital": "admin", 
        "lat": "56.671389", 
        "lng": "12.855556", 
        "population": "55657"
    }, 
    {
        "city": "Luleå",
        "admin": "Norrbotten", 
        "country": "Sweden", 
        "population_proper": "45551", 
        "iso2": "SE", 
        "capital": "admin", 
        "lat": "65.583333", 
        "lng": "22.15", 
        "population": "48638"
    }, 
    {
        "city": "Östersund",
        "admin": "Jämtland",
        "country": "Sweden", 
        "population_proper": "42940", 
        "iso2": "SE", 
        "capital": "admin", 
        "lat": "63.183333", 
        "lng": "14.65", 
        "population": "46178"
    }, 
    {
        "city": "Trollhättan",
        "admin": "Västra Götaland",
        "country": "Sweden", 
        "population_proper": "44522", 
        "iso2": "SE", 
        "capital": "minor", 
        "lat": "58.266667", 
        "lng": "12.3", 
        "population": "44543"
    }, 
    {
        "city": "Borlänge",
        "admin": "Dalarna", 
        "country": "Sweden", 
        "population_proper": "38527", 
        "iso2": "SE", 
        "capital": "minor", 
        "lat": "60.483333", 
        "lng": "15.416667", 
        "population": "39422"
    }, 
    {
        "city": "Falun", 
        "admin": "Dalarna", 
        "country": "Sweden", 
        "population_proper": "36477", 
        "iso2": "SE", 
        "capital": "admin", 
        "lat": "60.6", 
        "lng": "15.633333", 
        "population": "36477"
    }, 
    {
        "city": "Kalmar", 
        "admin": "Kalmar", 
        "country": "Sweden", 
        "population_proper": "34744", 
        "iso2": "SE", 
        "capital": "admin", 
        "lat": "56.666667", 
        "lng": "16.366667", 
        "population": "35024"
    }, 
    {
        "city": "Kristianstad", 
        "admin": "Skåne",
        "country": "Sweden", 
        "population_proper": "21339", 
        "iso2": "SE", 
        "capital": "minor", 
        "lat": "56.033333", 
        "lng": "14.133333", 
        "population": "32188"
    }, 
    {
        "city": "Skellefteå",
        "admin": "Västerbotten",
        "country": "Sweden", 
        "population_proper": "30839", 
        "iso2": "SE", 
        "capital": "minor", 
        "lat": "64.766667", 
        "lng": "20.95", 
        "population": "31311"
    }, 
    {
        "city": "Örnsköldsvik",
        "admin": "Västernorrland",
        "country": "Sweden", 
        "population_proper": "25063", 
        "iso2": "SE", 
        "capital": "minor", 
        "lat": "63.3", 
        "lng": "18.716667", 
        "population": "27749"
    }, 
    {
        "city": "Nyköping",
        "admin": "Södermanland",
        "country": "Sweden", 
        "population_proper": "27582", 
        "iso2": "SE", 
        "capital": "admin", 
        "lat": "58.75", 
        "lng": "17.0", 
        "population": "27582"
    }, 
    {
        "city": "Visby", 
        "admin": "Gotland", 
        "country": "Sweden", 
        "population_proper": "21970", 
        "iso2": "SE", 
        "capital": "admin", 
        "lat": "57.639617", 
        "lng": "18.298582", 
        "population": "22593"
    }, 
    {
        "city": "Vänersborg",
        "admin": "Västra Götaland",
        "country": "Sweden", 
        "population_proper": "21835", 
        "iso2": "SE", 
        "capital": "minor", 
        "lat": "58.366667", 
        "lng": "12.316667", 
        "population": "21835"
    }, 
    {
        "city": "Kirunavaara", 
        "admin": "Norrbotten", 
        "country": "Sweden", 
        "population_proper": "8450", 
        "iso2": "SE", 
        "capital": "", 
        "lat": "67.816667", 
        "lng": "20.2", 
        "population": "18154"
    }, 
    {
        "city": "Fröland",
        "admin": "Västernorrland",
        "country": "Sweden", 
        "population_proper": "17016", 
        "iso2": "SE", 
        "capital": "", 
        "lat": "62.616667", 
        "lng": "17.883333", 
        "population": "17016"
    }, 
    {
        "city": "Mariestad", 
        "admin": "Västra Götaland",
        "country": "Sweden", 
        "population_proper": "14891", 
        "iso2": "SE", 
        "capital": "minor", 
        "lat": "58.7", 
        "lng": "13.816667", 
        "population": "14891"
    }, 
    {
        "city": "Bollnäs",
        "admin": "Gävleborg",
        "country": "Sweden", 
        "population_proper": "12145", 
        "iso2": "SE", 
        "capital": "minor", 
        "lat": "61.35", 
        "lng": "16.366667", 
        "population": "13398"
    }, 
    {
        "city": "Älvsbyn",
        "admin": "Norrbotten", 
        "country": "Sweden", 
        "population_proper": "", 
        "iso2": "SE", 
        "capital": "minor", 
        "lat": "65.666667", 
        "lng": "21.0", 
        "population": ""
    }, 
    {
        "city": "Forshaga", 
        "admin": "Värmland",
        "country": "Sweden", 
        "population_proper": "", 
        "iso2": "SE", 
        "capital": "minor", 
        "lat": "59.533333", 
        "lng": "13.466667", 
        "population": ""
    }, 
    {
        "city": "Lomma", 
        "admin": "Skåne",
        "country": "Sweden", 
        "population_proper": "", 
        "iso2": "SE", 
        "capital": "minor", 
        "lat": "55.683333", 
        "lng": "13.083333", 
        "population": ""
    }, 
    {
        "city": "Henån",
        "admin": "Västra Götaland",
        "country": "Sweden", 
        "population_proper": "", 
        "iso2": "SE", 
        "capital": "minor", 
        "lat": "58.233333", 
        "lng": "11.683333", 
        "population": ""
    }, 
    {
        "city": "Kopparberg", 
        "admin": "Örebro",
        "country": "Sweden", 
        "population_proper": "", 
        "iso2": "SE", 
        "capital": "minor", 
        "lat": "59.866667", 
        "lng": "14.983333", 
        "population": ""
    }, 
    {
        "city": "Tibro", 
        "admin": "Västra Götaland",
        "country": "Sweden", 
        "population_proper": "", 
        "iso2": "SE", 
        "capital": "minor", 
        "lat": "58.416667", 
        "lng": "14.166667", 
        "population": ""
    }, 
    {
        "city": "Tidaholm", 
        "admin": "Västra Götaland",
        "country": "Sweden", 
        "population_proper": "", 
        "iso2": "SE", 
        "capital": "minor", 
        "lat": "58.183333", 
        "lng": "13.95", 
        "population": ""
    }, 
    {
        "city": "Broby", 
        "admin": "Skåne",
        "country": "Sweden", 
        "population_proper": "", 
        "iso2": "SE", 
        "capital": "minor", 
        "lat": "56.25", 
        "lng": "14.083333", 
        "population": ""
    }, 
    {
        "city": "Södertälje",
        "admin": "Stockholm", 
        "country": "Sweden", 
        "population_proper": "", 
        "iso2": "SE", 
        "capital": "minor", 
        "lat": "59.2", 
        "lng": "17.616667", 
        "population": ""
    }, 
    {
        "city": "Tierp", 
        "admin": "Uppsala", 
        "country": "Sweden", 
        "population_proper": "", 
        "iso2": "SE", 
        "capital": "minor", 
        "lat": "60.333333", 
        "lng": "17.5", 
        "population": ""
    }, 
    {
        "city": "Hammarstrand", 
        "admin": "Jämtland",
        "country": "Sweden", 
        "population_proper": "", 
        "iso2": "SE", 
        "capital": "minor", 
        "lat": "63.1", 
        "lng": "16.35", 
        "population": ""
    }, 
    {
        "city": "Motala", 
        "admin": "Östergötland",
        "country": "Sweden", 
        "population_proper": "", 
        "iso2": "SE", 
        "capital": "minor", 
        "lat": "58.55", 
        "lng": "15.05", 
        "population": ""
    }, 
    {
        "city": "Hagfors", 
        "admin": "Värmland",
        "country": "Sweden", 
        "population_proper": "", 
        "iso2": "SE", 
        "capital": "minor", 
        "lat": "60.033333", 
        "lng": "13.65", 
        "population": ""
    }, 
    {
        "city": "Filipstad", 
        "admin": "Värmland",
        "country": "Sweden", 
        "population_proper": "", 
        "iso2": "SE", 
        "capital": "minor", 
        "lat": "59.716667", 
        "lng": "14.166667", 
        "population": ""
    }, 
    {
        "city": "Hallsberg", 
        "admin": "Örebro",
        "country": "Sweden", 
        "population_proper": "", 
        "iso2": "SE", 
        "capital": "minor", 
        "lat": "59.066667", 
        "lng": "15.116667", 
        "population": ""
    }, 
    {
        "city": "Arjeplog", 
        "admin": "Norrbotten", 
        "country": "Sweden", 
        "population_proper": "", 
        "iso2": "SE", 
        "capital": "minor", 
        "lat": "66.048563", 
        "lng": "17.884984", 
        "population": ""
    }, 
    {
        "city": "Arvika", 
        "admin": "Värmland",
        "country": "Sweden", 
        "population_proper": "", 
        "iso2": "SE", 
        "capital": "minor", 
        "lat": "59.666667", 
        "lng": "12.566667", 
        "population": ""
    }, 
    {
        "city": "Tanumshede", 
        "admin": "Västra Götaland",
        "country": "Sweden", 
        "population_proper": "", 
        "iso2": "SE", 
        "capital": "minor", 
        "lat": "58.733333", 
        "lng": "11.316667", 
        "population": ""
    }, 
    {
        "city": "Kalix", 
        "admin": "Norrbotten", 
        "country": "Sweden", 
        "population_proper": "", 
        "iso2": "SE", 
        "capital": "minor", 
        "lat": "65.85", 
        "lng": "23.133333", 
        "population": ""
    }, 
    {
        "city": "Hedemora", 
        "admin": "Dalarna", 
        "country": "Sweden", 
        "population_proper": "", 
        "iso2": "SE", 
        "capital": "minor", 
        "lat": "60.283333", 
        "lng": "15.983333", 
        "population": ""
    }, 
    {
        "city": "Nossebro", 
        "admin": "Västra Götaland",
        "country": "Sweden", 
        "population_proper": "", 
        "iso2": "SE", 
        "capital": "minor", 
        "lat": "58.183333", 
        "lng": "12.716667", 
        "population": ""
    }, 
    {
        "city": "Hallstahammar", 
        "admin": "Västmanland",
        "country": "Sweden", 
        "population_proper": "", 
        "iso2": "SE", 
        "capital": "minor", 
        "lat": "59.616667", 
        "lng": "16.216667", 
        "population": ""
    }, 
    {
        "city": "Skurup", 
        "admin": "Skåne",
        "country": "Sweden", 
        "population_proper": "", 
        "iso2": "SE", 
        "capital": "minor", 
        "lat": "55.466667", 
        "lng": "13.5", 
        "population": ""
    }, 
    {
        "city": "Vetlanda", 
        "admin": "Jönköping",
        "country": "Sweden", 
        "population_proper": "", 
        "iso2": "SE", 
        "capital": "minor", 
        "lat": "57.433333", 
        "lng": "15.066667", 
        "population": ""
    }, 
    {
        "city": "Ronneby", 
        "admin": "Blekinge", 
        "country": "Sweden", 
        "population_proper": "", 
        "iso2": "SE", 
        "capital": "minor", 
        "lat": "56.2", 
        "lng": "15.3", 
        "population": ""
    }, 
    {
        "city": "Kungsör",
        "admin": "Västmanland",
        "country": "Sweden", 
        "population_proper": "", 
        "iso2": "SE", 
        "capital": "minor", 
        "lat": "59.416667", 
        "lng": "16.083333", 
        "population": ""
    }, 
    {
        "city": "Hova", 
        "admin": "Västra Götaland",
        "country": "Sweden", 
        "population_proper": "", 
        "iso2": "SE", 
        "capital": "minor", 
        "lat": "58.866667", 
        "lng": "14.183333", 
        "population": ""
    }, 
    {
        "city": "Eksjö",
        "admin": "Jönköping",
        "country": "Sweden", 
        "population_proper": "", 
        "iso2": "SE", 
        "capital": "minor", 
        "lat": "57.666667", 
        "lng": "14.95", 
        "population": ""
    }, 
    {
        "city": "Eslöv",
        "admin": "Skåne",
        "country": "Sweden", 
        "population_proper": "", 
        "iso2": "SE", 
        "capital": "minor", 
        "lat": "55.833333", 
        "lng": "13.333333", 
        "population": ""
    }, 
    {
        "city": "Höganäs",
        "admin": "Skåne",
        "country": "Sweden", 
        "population_proper": "", 
        "iso2": "SE", 
        "capital": "minor", 
        "lat": "56.2", 
        "lng": "12.55", 
        "population": ""
    }, 
    {
        "city": "Sölvesborg",
        "admin": "Blekinge", 
        "country": "Sweden", 
        "population_proper": "", 
        "iso2": "SE", 
        "capital": "minor", 
        "lat": "56.05", 
        "lng": "14.55", 
        "population": ""
    }, 
    {
        "city": "Norsjö",
        "admin": "Västerbotten",
        "country": "Sweden", 
        "population_proper": "", 
        "iso2": "SE", 
        "capital": "minor", 
        "lat": "64.916667", 
        "lng": "19.483333", 
        "population": ""
    }, 
    {
        "city": "Vaxholm", 
        "admin": "Stockholm", 
        "country": "Sweden", 
        "population_proper": "", 
        "iso2": "SE", 
        "capital": "minor", 
        "lat": "59.4", 
        "lng": "18.333333", 
        "population": ""
    }, 
    {
        "city": "Perstorp", 
        "admin": "Skåne",
        "country": "Sweden", 
        "population_proper": "", 
        "iso2": "SE", 
        "capital": "minor", 
        "lat": "56.133333", 
        "lng": "13.383333", 
        "population": ""
    }, 
    {
        "city": "Leksand", 
        "admin": "Dalarna", 
        "country": "Sweden", 
        "population_proper": "", 
        "iso2": "SE", 
        "capital": "minor", 
        "lat": "60.733333", 
        "lng": "15.016667", 
        "population": ""
    }, 
    {
        "city": "Ludvika", 
        "admin": "Dalarna", 
        "country": "Sweden", 
        "population_proper": "", 
        "iso2": "SE", 
        "capital": "minor", 
        "lat": "60.15", 
        "lng": "15.183333", 
        "population": ""
    }, 
    {
        "city": "Vilhelmina", 
        "admin": "Västerbotten",
        "country": "Sweden", 
        "population_proper": "", 
        "iso2": "SE", 
        "capital": "minor", 
        "lat": "64.616667", 
        "lng": "16.65", 
        "population": ""
    }, 
    {
        "city": "Alvesta", 
        "admin": "Kronoberg", 
        "country": "Sweden", 
        "population_proper": "", 
        "iso2": "SE", 
        "capital": "minor", 
        "lat": "56.9", 
        "lng": "14.55", 
        "population": ""
    }, 
    {
        "city": "Valdemarsvik", 
        "admin": "Östergötland",
        "country": "Sweden", 
        "population_proper": "", 
        "iso2": "SE", 
        "capital": "minor", 
        "lat": "58.2", 
        "lng": "16.6", 
        "population": ""
    }, 
    {
        "city": "Skillingaryd", 
        "admin": "Jönköping",
        "country": "Sweden", 
        "population_proper": "", 
        "iso2": "SE", 
        "capital": "minor", 
        "lat": "57.433333", 
        "lng": "14.083333", 
        "population": ""
    }, 
    {
        "city": "Alafors", 
        "admin": "Västra Götaland",
        "country": "Sweden", 
        "population_proper": "", 
        "iso2": "SE", 
        "capital": "minor", 
        "lat": "57.933333", 
        "lng": "12.083333", 
        "population": ""
    }, 
    {
        "city": "Tranås",
        "admin": "Jönköping",
        "country": "Sweden", 
        "population_proper": "", 
        "iso2": "SE", 
        "capital": "minor", 
        "lat": "58.05", 
        "lng": "14.983333", 
        "population": ""
    }, 
    {
        "city": "Nykvarn", 
        "admin": "Stockholm", 
        "country": "Sweden", 
        "population_proper": "", 
        "iso2": "SE", 
        "capital": "minor", 
        "lat": "59.183333", 
        "lng": "17.433333", 
        "population": ""
    }, 
    {
        "city": "Upplands Väsby",
        "admin": "Stockholm", 
        "country": "Sweden", 
        "population_proper": "", 
        "iso2": "SE", 
        "capital": "minor", 
        "lat": "59.516667", 
        "lng": "17.9", 
        "population": ""
    }, 
    {
        "city": "Bjurholm", 
        "admin": "Västerbotten",
        "country": "Sweden", 
        "population_proper": "", 
        "iso2": "SE", 
        "capital": "minor", 
        "lat": "63.933333", 
        "lng": "19.216667", 
        "population": ""
    }, 
    {
        "city": "Degerfors", 
        "admin": "Örebro",
        "country": "Sweden", 
        "population_proper": "", 
        "iso2": "SE", 
        "capital": "minor", 
        "lat": "59.233333", 
        "lng": "14.433333", 
        "population": ""
    }, 
    {
        "city": "Sundsvall", 
        "admin": "Västernorrland",
        "country": "Sweden", 
        "population_proper": "", 
        "iso2": "SE", 
        "capital": "minor", 
        "lat": "62.383333", 
        "lng": "17.3", 
        "population": ""
    }, 
    {
        "city": "Ystad", 
        "admin": "Skåne",
        "country": "Sweden", 
        "population_proper": "", 
        "iso2": "SE", 
        "capital": "minor", 
        "lat": "55.416667", 
        "lng": "13.816667", 
        "population": ""
    }, 
    {
        "city": "Jakobsberg", 
        "admin": "Stockholm", 
        "country": "Sweden", 
        "population_proper": "", 
        "iso2": "SE", 
        "capital": "minor", 
        "lat": "59.416667", 
        "lng": "17.833333", 
        "population": ""
    }, 
    {
        "city": "Knivsta", 
        "admin": "Uppsala", 
        "country": "Sweden", 
        "population_proper": "", 
        "iso2": "SE", 
        "capital": "minor", 
        "lat": "59.716667", 
        "lng": "17.8", 
        "population": ""
    }, 
    {
        "city": "Vallentuna", 
        "admin": "Stockholm", 
        "country": "Sweden", 
        "population_proper": "", 
        "iso2": "SE", 
        "capital": "minor", 
        "lat": "59.533333", 
        "lng": "18.083333", 
        "population": ""
    }, 
    {
        "city": "Strängnäs",
        "admin": "Södermanland",
        "country": "Sweden", 
        "population_proper": "", 
        "iso2": "SE", 
        "capital": "minor", 
        "lat": "59.383333", 
        "lng": "17.033333", 
        "population": ""
    }, 
    {
        "city": "Östhammar",
        "admin": "Uppsala", 
        "country": "Sweden", 
        "population_proper": "", 
        "iso2": "SE", 
        "capital": "minor", 
        "lat": "60.266667", 
        "lng": "18.366667", 
        "population": ""
    }, 
    {
        "city": "Hofors", 
        "admin": "Gävleborg",
        "country": "Sweden", 
        "population_proper": "", 
        "iso2": "SE", 
        "capital": "minor", 
        "lat": "60.55", 
        "lng": "16.283333", 
        "population": ""
    }, 
    {
        "city": "Mölndal",
        "admin": "Västra Götaland",
        "country": "Sweden", 
        "population_proper": "", 
        "iso2": "SE", 
        "capital": "minor", 
        "lat": "57.65", 
        "lng": "12.016667", 
        "population": ""
    }, 
    {
        "city": "Simrishamn", 
        "admin": "Skåne",
        "country": "Sweden", 
        "population_proper": "", 
        "iso2": "SE", 
        "capital": "minor", 
        "lat": "55.55", 
        "lng": "14.333333", 
        "population": ""
    }, 
    {
        "city": "Bräcke",
        "admin": "Jämtland",
        "country": "Sweden", 
        "population_proper": "", 
        "iso2": "SE", 
        "capital": "minor", 
        "lat": "62.75", 
        "lng": "15.416667", 
        "population": ""
    }, 
    {
        "city": "Vansbro", 
        "admin": "Dalarna", 
        "country": "Sweden", 
        "population_proper": "", 
        "iso2": "SE", 
        "capital": "minor", 
        "lat": "60.516667", 
        "lng": "14.216667", 
        "population": ""
    }, 
    {
        "city": "Lerum", 
        "admin": "Västra Götaland",
        "country": "Sweden", 
        "population_proper": "", 
        "iso2": "SE", 
        "capital": "minor", 
        "lat": "57.766667", 
        "lng": "12.266667", 
        "population": ""
    }, 
    {
        "city": "Götene",
        "admin": "Västra Götaland",
        "country": "Sweden", 
        "population_proper": "", 
        "iso2": "SE", 
        "capital": "minor", 
        "lat": "58.533333", 
        "lng": "13.483333", 
        "population": ""
    }, 
    {
        "city": "Sollefteå",
        "admin": "Västernorrland",
        "country": "Sweden", 
        "population_proper": "", 
        "iso2": "SE", 
        "capital": "minor", 
        "lat": "63.166667", 
        "lng": "17.266667", 
        "population": ""
    }, 
    {
        "city": "Boden", 
        "admin": "Norrbotten", 
        "country": "Sweden", 
        "population_proper": "", 
        "iso2": "SE", 
        "capital": "minor", 
        "lat": "65.833333", 
        "lng": "21.7", 
        "population": ""
    }, 
    {
        "city": "Ed", 
        "admin": "Västra Götaland",
        "country": "Sweden", 
        "population_proper": "", 
        "iso2": "SE", 
        "capital": "minor", 
        "lat": "58.916667", 
        "lng": "11.916667", 
        "population": ""
    }, 
    {
        "city": "Kungsbacka", 
        "admin": "Halland", 
        "country": "Sweden", 
        "population_proper": "", 
        "iso2": "SE", 
        "capital": "minor", 
        "lat": "57.483333", 
        "lng": "12.066667", 
        "population": ""
    }, 
    {
        "city": "Åstorp",
        "admin": "Skåne",
        "country": "Sweden", 
        "population_proper": "", 
        "iso2": "SE", 
        "capital": "minor", 
        "lat": "56.133333", 
        "lng": "12.95", 
        "population": ""
    }, 
    {
        "city": "Skärhamn",
        "admin": "Västra Götaland",
        "country": "Sweden", 
        "population_proper": "", 
        "iso2": "SE", 
        "capital": "minor", 
        "lat": "57.996667", 
        "lng": "11.556111", 
        "population": ""
    }, 
    {
        "city": "Karlskrona", 
        "admin": "Blekinge", 
        "country": "Sweden", 
        "population_proper": "", 
        "iso2": "SE", 
        "capital": "admin", 
        "lat": "56.166667", 
        "lng": "15.583333", 
        "population": ""
    }, 
    {
        "city": "Mörbylånga",
        "admin": "Kalmar", 
        "country": "Sweden", 
        "population_proper": "", 
        "iso2": "SE", 
        "capital": "minor", 
        "lat": "56.516667", 
        "lng": "16.383333", 
        "population": ""
    }, 
    {
        "city": "Tomelilla", 
        "admin": "Skåne",
        "country": "Sweden", 
        "population_proper": "", 
        "iso2": "SE", 
        "capital": "minor", 
        "lat": "55.55", 
        "lng": "13.95", 
        "population": ""
    }, 
    {
        "city": "Vingåker",
        "admin": "Södermanland",
        "country": "Sweden", 
        "population_proper": "", 
        "iso2": "SE", 
        "capital": "minor", 
        "lat": "59.033333", 
        "lng": "15.866667", 
        "population": ""
    }, 
    {
        "city": "Lysekil", 
        "admin": "Västra Götaland",
        "country": "Sweden", 
        "population_proper": "", 
        "iso2": "SE", 
        "capital": "minor", 
        "lat": "58.283333", 
        "lng": "11.433333", 
        "population": ""
    }, 
    {
        "city": "Säffle",
        "admin": "Värmland",
        "country": "Sweden", 
        "population_proper": "", 
        "iso2": "SE", 
        "capital": "minor", 
        "lat": "59.133333", 
        "lng": "12.9", 
        "population": ""
    }, 
    {
        "city": "Norberg", 
        "admin": "Västmanland",
        "country": "Sweden", 
        "population_proper": "", 
        "iso2": "SE", 
        "capital": "minor", 
        "lat": "60.066667", 
        "lng": "15.933333", 
        "population": ""
    }, 
    {
        "city": "Skinnskatteberg", 
        "admin": "Västmanland",
        "country": "Sweden", 
        "population_proper": "", 
        "iso2": "SE", 
        "capital": "minor", 
        "lat": "59.833333", 
        "lng": "15.683333", 
        "population": ""
    }, 
    {
        "city": "Falkenberg", 
        "admin": "Halland", 
        "country": "Sweden", 
        "population_proper": "", 
        "iso2": "SE", 
        "capital": "minor", 
        "lat": "56.898056", 
        "lng": "12.501944", 
        "population": ""
    }, 
    {
        "city": "Söderköping",
        "admin": "Östergötland",
        "country": "Sweden", 
        "population_proper": "", 
        "iso2": "SE", 
        "capital": "minor", 
        "lat": "58.483333", 
        "lng": "16.3", 
        "population": ""
    }, 
    {
        "city": "Surahammar", 
        "admin": "Västmanland",
        "country": "Sweden", 
        "population_proper": "", 
        "iso2": "SE", 
        "capital": "minor", 
        "lat": "59.716667", 
        "lng": "16.216667", 
        "population": ""
    }, 
    {
        "city": "Munkfors", 
        "admin": "Värmland",
        "country": "Sweden", 
        "population_proper": "", 
        "iso2": "SE", 
        "capital": "minor", 
        "lat": "59.833333", 
        "lng": "13.533333", 
        "population": ""
    }, 
    {
        "city": "Bollebygd", 
        "admin": "Västra Götaland",
        "country": "Sweden", 
        "population_proper": "", 
        "iso2": "SE", 
        "capital": "minor", 
        "lat": "57.666667", 
        "lng": "12.55", 
        "population": ""
    }, 
    {
        "city": "Gagnef", 
        "admin": "Dalarna", 
        "country": "Sweden", 
        "population_proper": "", 
        "iso2": "SE", 
        "capital": "minor", 
        "lat": "60.583333", 
        "lng": "15.066667", 
        "population": ""
    }, 
    {
        "city": "Hyltebruk", 
        "admin": "Halland", 
        "country": "Sweden", 
        "population_proper": "", 
        "iso2": "SE", 
        "capital": "minor", 
        "lat": "57.0", 
        "lng": "13.233333", 
        "population": ""
    }, 
    {
        "city": "Ödeshög",
        "admin": "Östergötland",
        "country": "Sweden", 
        "population_proper": "", 
        "iso2": "SE", 
        "capital": "minor", 
        "lat": "58.233333", 
        "lng": "14.65", 
        "population": ""
    }, 
    {
        "city": "Torsås",
        "admin": "Kalmar", 
        "country": "Sweden", 
        "population_proper": "", 
        "iso2": "SE", 
        "capital": "minor", 
        "lat": "56.4", 
        "lng": "16.0", 
        "population": ""
    }, 
    {
        "city": "Nynäshamn",
        "admin": "Stockholm", 
        "country": "Sweden", 
        "population_proper": "", 
        "iso2": "SE", 
        "capital": "minor", 
        "lat": "58.904444", 
        "lng": "17.946389", 
        "population": ""
    }, 
    {
        "city": "Djursholm", 
        "admin": "Stockholm", 
        "country": "Sweden", 
        "population_proper": "", 
        "iso2": "SE", 
        "capital": "minor", 
        "lat": "59.4", 
        "lng": "18.083333", 
        "population": ""
    }, 
    {
        "city": "Boxholm", 
        "admin": "Östergötland",
        "country": "Sweden", 
        "population_proper": "", 
        "iso2": "SE", 
        "capital": "minor", 
        "lat": "58.2", 
        "lng": "15.05", 
        "population": ""
    }, 
    {
        "city": "Bengtsfors", 
        "admin": "Västra Götaland",
        "country": "Sweden", 
        "population_proper": "", 
        "iso2": "SE", 
        "capital": "minor", 
        "lat": "59.033333", 
        "lng": "12.216667", 
        "population": ""
    }, 
    {
        "city": "Båstad",
        "admin": "Skåne",
        "country": "Sweden", 
        "population_proper": "", 
        "iso2": "SE", 
        "capital": "minor", 
        "lat": "56.432222", 
        "lng": "12.833333", 
        "population": ""
    }, 
    {
        "city": "Österbymo",
        "admin": "Östergötland",
        "country": "Sweden", 
        "population_proper": "", 
        "iso2": "SE", 
        "capital": "minor", 
        "lat": "57.833333", 
        "lng": "15.266667", 
        "population": ""
    }, 
    {
        "city": "Kungsängen",
        "admin": "Stockholm", 
        "country": "Sweden", 
        "population_proper": "", 
        "iso2": "SE", 
        "capital": "minor", 
        "lat": "59.483333", 
        "lng": "17.75", 
        "population": ""
    }, 
    {
        "city": "Kungälv",
        "admin": "Västra Götaland",
        "country": "Sweden", 
        "population_proper": "", 
        "iso2": "SE", 
        "capital": "minor", 
        "lat": "57.866667", 
        "lng": "11.966667", 
        "population": ""
    }, 
    {
        "city": "Älmhult",
        "admin": "Kronoberg", 
        "country": "Sweden", 
        "population_proper": "", 
        "iso2": "SE", 
        "capital": "minor", 
        "lat": "56.55", 
        "lng": "14.133333", 
        "population": ""
    }, 
    {
        "city": "Sorsele", 
        "admin": "Västerbotten",
        "country": "Sweden", 
        "population_proper": "", 
        "iso2": "SE", 
        "capital": "minor", 
        "lat": "65.53239", 
        "lng": "17.543098", 
        "population": ""
    }, 
    {
        "city": "Smedjebacken", 
        "admin": "Dalarna", 
        "country": "Sweden", 
        "population_proper": "", 
        "iso2": "SE", 
        "capital": "minor", 
        "lat": "60.133333", 
        "lng": "15.416667", 
        "population": ""
    }, 
    {
        "city": "Uddevalla", 
        "admin": "Västra Götaland",
        "country": "Sweden", 
        "population_proper": "", 
        "iso2": "SE", 
        "capital": "minor", 
        "lat": "58.366667", 
        "lng": "11.933333", 
        "population": ""
    }, 
    {
        "city": "Oxelösund",
        "admin": "Södermanland",
        "country": "Sweden", 
        "population_proper": "", 
        "iso2": "SE", 
        "capital": "minor", 
        "lat": "58.666667", 
        "lng": "17.1", 
        "population": ""
    }, 
    {
        "city": "Överkalix",
        "admin": "Norrbotten", 
        "country": "Sweden", 
        "population_proper": "", 
        "iso2": "SE", 
        "capital": "minor", 
        "lat": "66.316667", 
        "lng": "22.833333", 
        "population": ""
    }, 
    {
        "city": "Laholm", 
        "admin": "Halland", 
        "country": "Sweden", 
        "population_proper": "", 
        "iso2": "SE", 
        "capital": "minor", 
        "lat": "56.516667", 
        "lng": "13.033333", 
        "population": ""
    }, 
    {
        "city": "Svalöv",
        "admin": "Skåne",
        "country": "Sweden", 
        "population_proper": "", 
        "iso2": "SE", 
        "capital": "minor", 
        "lat": "55.916667", 
        "lng": "13.1", 
        "population": ""
    }, 
    {
        "city": "Sandviken", 
        "admin": "Gävleborg",
        "country": "Sweden", 
        "population_proper": "", 
        "iso2": "SE", 
        "capital": "minor", 
        "lat": "60.616667", 
        "lng": "16.766667", 
        "population": ""
    }, 
    {
        "city": "Nacka", 
        "admin": "Stockholm", 
        "country": "Sweden", 
        "population_proper": "", 
        "iso2": "SE", 
        "capital": "minor", 
        "lat": "59.3", 
        "lng": "18.166667", 
        "population": ""
    }, 
    {
        "city": "Enköping",
        "admin": "Uppsala", 
        "country": "Sweden", 
        "population_proper": "", 
        "iso2": "SE", 
        "capital": "minor", 
        "lat": "59.633333", 
        "lng": "17.066667", 
        "population": ""
    }, 
    {
        "city": "Älvdalen",
        "admin": "Dalarna", 
        "country": "Sweden", 
        "population_proper": "", 
        "iso2": "SE", 
        "capital": "minor", 
        "lat": "61.233333", 
        "lng": "14.033333", 
        "population": ""
    }, 
    {
        "city": "Katrineholm", 
        "admin": "Södermanland",
        "country": "Sweden", 
        "population_proper": "", 
        "iso2": "SE", 
        "capital": "minor", 
        "lat": "59.0", 
        "lng": "16.2", 
        "population": ""
    }, 
    {
        "city": "Rättvik",
        "admin": "Dalarna", 
        "country": "Sweden", 
        "population_proper": "", 
        "iso2": "SE", 
        "capital": "minor", 
        "lat": "60.883333", 
        "lng": "15.1", 
        "population": ""
    }, 
    {
        "city": "Skoghall", 
        "admin": "Värmland",
        "country": "Sweden", 
        "population_proper": "", 
        "iso2": "SE", 
        "capital": "minor", 
        "lat": "59.333333", 
        "lng": "13.433333", 
        "population": ""
    }, 
    {
        "city": "Sunne", 
        "admin": "Värmland",
        "country": "Sweden", 
        "population_proper": "", 
        "iso2": "SE", 
        "capital": "minor", 
        "lat": "59.833333", 
        "lng": "13.15", 
        "population": ""
    }, 
    {
        "city": "Gislaved", 
        "admin": "Jönköping",
        "country": "Sweden", 
        "population_proper": "", 
        "iso2": "SE", 
        "capital": "minor", 
        "lat": "57.3", 
        "lng": "13.533333", 
        "population": ""
    }, 
    {
        "city": "Tumba", 
        "admin": "Stockholm", 
        "country": "Sweden", 
        "population_proper": "", 
        "iso2": "SE", 
        "capital": "minor", 
        "lat": "59.2", 
        "lng": "17.816667", 
        "population": ""
    }, 
    {
        "city": "Ulricehamn", 
        "admin": "Västra Götaland",
        "country": "Sweden", 
        "population_proper": "", 
        "iso2": "SE", 
        "capital": "minor", 
        "lat": "57.783333", 
        "lng": "13.416667", 
        "population": ""
    }, 
    {
        "city": "Osby", 
        "admin": "Skåne",
        "country": "Sweden", 
        "population_proper": "", 
        "iso2": "SE", 
        "capital": "minor", 
        "lat": "56.366667", 
        "lng": "13.983333", 
        "population": ""
    }, 
    {
        "city": "Högsby",
        "admin": "Kalmar", 
        "country": "Sweden", 
        "population_proper": "", 
        "iso2": "SE", 
        "capital": "minor", 
        "lat": "57.166667", 
        "lng": "16.033333", 
        "population": ""
    }, 
    {
        "city": "Munkedal", 
        "admin": "Västra Götaland",
        "country": "Sweden", 
        "population_proper": "", 
        "iso2": "SE", 
        "capital": "minor", 
        "lat": "58.483333", 
        "lng": "11.683333", 
        "population": ""
    }, 
    {
        "city": "Järpen",
        "admin": "Jämtland",
        "country": "Sweden", 
        "population_proper": "", 
        "iso2": "SE", 
        "capital": "minor", 
        "lat": "63.35", 
        "lng": "13.483333", 
        "population": ""
    }, 
    {
        "city": "Lycksele", 
        "admin": "Västerbotten",
        "country": "Sweden", 
        "population_proper": "", 
        "iso2": "SE", 
        "capital": "minor", 
        "lat": "64.6", 
        "lng": "18.666667", 
        "population": ""
    }, 
    {
        "city": "Ljungby", 
        "admin": "Kronoberg", 
        "country": "Sweden", 
        "population_proper": "", 
        "iso2": "SE", 
        "capital": "minor", 
        "lat": "56.833333", 
        "lng": "13.933333", 
        "population": ""
    }, 
    {
        "city": "Vara", 
        "admin": "Västra Götaland",
        "country": "Sweden", 
        "population_proper": "", 
        "iso2": "SE", 
        "capital": "minor", 
        "lat": "58.266667", 
        "lng": "12.95", 
        "population": ""
    }, 
    {
        "city": "Värnamo",
        "admin": "Jönköping",
        "country": "Sweden", 
        "population_proper": "", 
        "iso2": "SE", 
        "capital": "minor", 
        "lat": "57.183333", 
        "lng": "14.033333", 
        "population": ""
    }, 
    {
        "city": "Emmaboda", 
        "admin": "Kalmar", 
        "country": "Sweden", 
        "population_proper": "", 
        "iso2": "SE", 
        "capital": "minor", 
        "lat": "56.633333", 
        "lng": "15.533333", 
        "population": ""
    }, 
    {
        "city": "Nässjö",
        "admin": "Jönköping",
        "country": "Sweden", 
        "population_proper": "", 
        "iso2": "SE", 
        "capital": "minor", 
        "lat": "57.65", 
        "lng": "14.683333", 
        "population": ""
    }, 
    {
        "city": "Haparanda", 
        "admin": "Norrbotten", 
        "country": "Sweden", 
        "population_proper": "", 
        "iso2": "SE", 
        "capital": "minor", 
        "lat": "65.829729", 
        "lng": "24.147", 
        "population": ""
    }, 
    {
        "city": "Västerhaninge",
        "admin": "Stockholm", 
        "country": "Sweden", 
        "population_proper": "", 
        "iso2": "SE", 
        "capital": "minor", 
        "lat": "59.116667", 
        "lng": "18.1", 
        "population": ""
    }, 
    {
        "city": "Herrljunga", 
        "admin": "Västra Götaland",
        "country": "Sweden", 
        "population_proper": "", 
        "iso2": "SE", 
        "capital": "minor", 
        "lat": "58.083333", 
        "lng": "13.033333", 
        "population": ""
    }, 
    {
        "city": "Tranemo", 
        "admin": "Västra Götaland",
        "country": "Sweden", 
        "population_proper": "", 
        "iso2": "SE", 
        "capital": "minor", 
        "lat": "57.483333", 
        "lng": "13.35", 
        "population": ""
    }, 
    {
        "city": "Laxå",
        "admin": "Örebro",
        "country": "Sweden", 
        "population_proper": "", 
        "iso2": "SE", 
        "capital": "minor", 
        "lat": "58.983333", 
        "lng": "14.616667", 
        "population": ""
    }, 
    {
        "city": "Mölnlycke",
        "admin": "Västra Götaland",
        "country": "Sweden", 
        "population_proper": "", 
        "iso2": "SE", 
        "capital": "minor", 
        "lat": "57.65", 
        "lng": "12.133333", 
        "population": ""
    }, 
    {
        "city": "Storuman", 
        "admin": "Västerbotten",
        "country": "Sweden", 
        "population_proper": "", 
        "iso2": "SE", 
        "capital": "minor", 
        "lat": "65.1", 
        "lng": "17.1", 
        "population": ""
    }, 
    {
        "city": "Skara", 
        "admin": "Västra Götaland",
        "country": "Sweden", 
        "population_proper": "", 
        "iso2": "SE", 
        "capital": "minor", 
        "lat": "58.366667", 
        "lng": "13.416667", 
        "population": ""
    }, 
    {
        "city": "Hudiksvall", 
        "admin": "Gävleborg",
        "country": "Sweden", 
        "population_proper": "", 
        "iso2": "SE", 
        "capital": "minor", 
        "lat": "61.733333", 
        "lng": "17.1125", 
        "population": ""
    }, 
    {
        "city": "Ljusdal", 
        "admin": "Gävleborg",
        "country": "Sweden", 
        "population_proper": "", 
        "iso2": "SE", 
        "capital": "minor", 
        "lat": "61.833333", 
        "lng": "16.1", 
        "population": ""
    }, 
    {
        "city": "Huddinge", 
        "admin": "Stockholm", 
        "country": "Sweden", 
        "population_proper": "", 
        "iso2": "SE", 
        "capital": "minor", 
        "lat": "59.233333", 
        "lng": "17.983333", 
        "population": ""
    }, 
    {
        "city": "Töreboda",
        "admin": "Västra Götaland",
        "country": "Sweden", 
        "population_proper": "", 
        "iso2": "SE", 
        "capital": "minor", 
        "lat": "58.716667", 
        "lng": "14.133333", 
        "population": ""
    }, 
    {
        "city": "Svenljunga", 
        "admin": "Västra Götaland",
        "country": "Sweden", 
        "population_proper": "", 
        "iso2": "SE", 
        "capital": "minor", 
        "lat": "57.5", 
        "lng": "13.116667", 
        "population": ""
    }, 
    {
        "city": "Lidingö",
        "admin": "Stockholm", 
        "country": "Sweden", 
        "population_proper": "", 
        "iso2": "SE", 
        "capital": "minor", 
        "lat": "59.366667", 
        "lng": "18.133333", 
        "population": ""
    }, 
    {
        "city": "Solna", 
        "admin": "Stockholm", 
        "country": "Sweden", 
        "population_proper": "", 
        "iso2": "SE", 
        "capital": "minor", 
        "lat": "59.366667", 
        "lng": "18.016667", 
        "population": ""
    }, 
    {
        "city": "Tyresö",
        "admin": "Stockholm", 
        "country": "Sweden", 
        "population_proper": "", 
        "iso2": "SE", 
        "capital": "minor", 
        "lat": "59.233333", 
        "lng": "18.3", 
        "population": ""
    }, 
    {
        "city": "Vännäs",
        "admin": "Västerbotten",
        "country": "Sweden", 
        "population_proper": "", 
        "iso2": "SE", 
        "capital": "minor", 
        "lat": "63.916667", 
        "lng": "19.75", 
        "population": ""
    }, 
    {
        "city": "Örkelljunga",
        "admin": "Skåne",
        "country": "Sweden", 
        "population_proper": "", 
        "iso2": "SE", 
        "capital": "minor", 
        "lat": "56.283333", 
        "lng": "13.283333", 
        "population": ""
    }, 
    {
        "city": "Kil", 
        "admin": "Värmland",
        "country": "Sweden", 
        "population_proper": "", 
        "iso2": "SE", 
        "capital": "minor", 
        "lat": "59.516667", 
        "lng": "13.316667", 
        "population": ""
    }, 
    {
        "city": "Fagersta", 
        "admin": "Västmanland",
        "country": "Sweden", 
        "population_proper": "", 
        "iso2": "SE", 
        "capital": "minor", 
        "lat": "60.0", 
        "lng": "15.783333", 
        "population": ""
    }, 
    {
        "city": "Åsele",
        "admin": "Västerbotten",
        "country": "Sweden", 
        "population_proper": "", 
        "iso2": "SE", 
        "capital": "minor", 
        "lat": "64.166667", 
        "lng": "17.333333", 
        "population": ""
    }, 
    {
        "city": "Åseda",
        "admin": "Kronoberg", 
        "country": "Sweden", 
        "population_proper": "", 
        "iso2": "SE", 
        "capital": "minor", 
        "lat": "57.166667", 
        "lng": "15.333333", 
        "population": ""
    }, 
    {
        "city": "Staffanstorp", 
        "admin": "Skåne",
        "country": "Sweden", 
        "population_proper": "", 
        "iso2": "SE", 
        "capital": "minor", 
        "lat": "55.633333", 
        "lng": "13.216667", 
        "population": ""
    }, 
    {
        "city": "Ekerö",
        "admin": "Stockholm", 
        "country": "Sweden", 
        "population_proper": "", 
        "iso2": "SE", 
        "capital": "minor", 
        "lat": "59.266667", 
        "lng": "17.733333", 
        "population": ""
    }, 
    {
        "city": "Norrtälje",
        "admin": "Stockholm", 
        "country": "Sweden", 
        "population_proper": "", 
        "iso2": "SE", 
        "capital": "minor", 
        "lat": "59.766667", 
        "lng": "18.7", 
        "population": ""
    }, 
    {
        "city": "Märsta",
        "admin": "Stockholm", 
        "country": "Sweden", 
        "population_proper": "", 
        "iso2": "SE", 
        "capital": "minor", 
        "lat": "59.616667", 
        "lng": "17.85", 
        "population": ""
    }, 
    {
        "city": "Markaryd", 
        "admin": "Kronoberg", 
        "country": "Sweden", 
        "population_proper": "", 
        "iso2": "SE", 
        "capital": "minor", 
        "lat": "56.433333", 
        "lng": "13.6", 
        "population": ""
    }, 
    {
        "city": "Hällefors",
        "admin": "Örebro",
        "country": "Sweden", 
        "population_proper": "", 
        "iso2": "SE", 
        "capital": "minor", 
        "lat": "59.783333", 
        "lng": "14.5", 
        "population": ""
    }, 
    {
        "city": "Vimmerby", 
        "admin": "Kalmar", 
        "country": "Sweden", 
        "population_proper": "", 
        "iso2": "SE", 
        "capital": "minor", 
        "lat": "57.666667", 
        "lng": "15.85", 
        "population": ""
    }, 
    {
        "city": "Mönsterås",
        "admin": "Kalmar", 
        "country": "Sweden", 
        "population_proper": "", 
        "iso2": "SE", 
        "capital": "minor", 
        "lat": "57.033333", 
        "lng": "16.433333", 
        "population": ""
    }, 
    {
        "city": "Fjugesta", 
        "admin": "Örebro",
        "country": "Sweden", 
        "population_proper": "", 
        "iso2": "SE", 
        "capital": "minor", 
        "lat": "59.166667", 
        "lng": "14.866667", 
        "population": ""
    }, 
    {
        "city": "Åtvidaberg",
        "admin": "Östergötland",
        "country": "Sweden", 
        "population_proper": "", 
        "iso2": "SE", 
        "capital": "minor", 
        "lat": "58.2", 
        "lng": "16.0", 
        "population": ""
    }, 
    {
        "city": "Kristinehamn", 
        "admin": "Värmland",
        "country": "Sweden", 
        "population_proper": "", 
        "iso2": "SE", 
        "capital": "minor", 
        "lat": "59.333333", 
        "lng": "14.116667", 
        "population": ""
    }, 
    {
        "city": "Arboga", 
        "admin": "Västmanland",
        "country": "Sweden", 
        "population_proper": "", 
        "iso2": "SE", 
        "capital": "minor", 
        "lat": "59.4", 
        "lng": "15.833333", 
        "population": ""
    }, 
    {
        "city": "Alingsås",
        "admin": "Västra Götaland",
        "country": "Sweden", 
        "population_proper": "", 
        "iso2": "SE", 
        "capital": "minor", 
        "lat": "57.933333", 
        "lng": "12.516667", 
        "population": ""
    }, 
    {
        "city": "Hässleholm",
        "admin": "Skåne",
        "country": "Sweden", 
        "population_proper": "", 
        "iso2": "SE", 
        "capital": "minor", 
        "lat": "56.15", 
        "lng": "13.766667", 
        "population": ""
    }, 
    {
        "city": "Edsbyn", 
        "admin": "Gävleborg",
        "country": "Sweden", 
        "population_proper": "", 
        "iso2": "SE", 
        "capital": "minor", 
        "lat": "61.383333", 
        "lng": "15.816667", 
        "population": ""
    }, 
    {
        "city": "Strömstad",
        "admin": "Västra Götaland",
        "country": "Sweden", 
        "population_proper": "", 
        "iso2": "SE", 
        "capital": "minor", 
        "lat": "58.933333", 
        "lng": "11.183333", 
        "population": ""
    }, 
    {
        "city": "Strömsund",
        "admin": "Jämtland",
        "country": "Sweden", 
        "population_proper": "", 
        "iso2": "SE", 
        "capital": "minor", 
        "lat": "63.85", 
        "lng": "15.583333", 
        "population": ""
    }, 
    {
        "city": "Storfors", 
        "admin": "Värmland",
        "country": "Sweden", 
        "population_proper": "", 
        "iso2": "SE", 
        "capital": "minor", 
        "lat": "59.533333", 
        "lng": "14.266667", 
        "population": ""
    }, 
    {
        "city": "Årjäng",
        "admin": "Värmland",
        "country": "Sweden", 
        "population_proper": "", 
        "iso2": "SE", 
        "capital": "minor", 
        "lat": "59.383333", 
        "lng": "12.133333", 
        "population": ""
    }, 
    {
        "city": "Karlsborg", 
        "admin": "Västra Götaland",
        "country": "Sweden", 
        "population_proper": "", 
        "iso2": "SE", 
        "capital": "minor", 
        "lat": "58.533333", 
        "lng": "14.516667", 
        "population": ""
    }, 
    {
        "city": "Rönninge",
        "admin": "Stockholm", 
        "country": "Sweden", 
        "population_proper": "", 
        "iso2": "SE", 
        "capital": "minor", 
        "lat": "59.2", 
        "lng": "17.733333", 
        "population": ""
    }, 
    {
        "city": "Göteborg",
        "admin": "Västra Götaland",
        "country": "Sweden", 
        "population_proper": "", 
        "iso2": "SE", 
        "capital": "admin", 
        "lat": "57.716667", 
        "lng": "11.966667", 
        "population": ""
    }, 
    {
        "city": "Vadstena", 
        "admin": "Östergötland",
        "country": "Sweden", 
        "population_proper": "", 
        "iso2": "SE", 
        "capital": "minor", 
        "lat": "58.45", 
        "lng": "14.9", 
        "population": ""
    }, 
    {
        "city": "Bergsjö",
        "admin": "Gävleborg",
        "country": "Sweden", 
        "population_proper": "", 
        "iso2": "SE", 
        "capital": "minor", 
        "lat": "61.983333", 
        "lng": "17.066667", 
        "population": ""
    }, 
    {
        "city": "Karlskoga", 
        "admin": "Örebro",
        "country": "Sweden", 
        "population_proper": "", 
        "iso2": "SE", 
        "capital": "minor", 
        "lat": "59.333333", 
        "lng": "14.516667", 
        "population": ""
    }, 
    {
        "city": "Sollentuna", 
        "admin": "Stockholm", 
        "country": "Sweden", 
        "population_proper": "", 
        "iso2": "SE", 
        "capital": "minor", 
        "lat": "59.466667", 
        "lng": "17.9", 
        "population": ""
    }, 
    {
        "city": "Säter",
        "admin": "Dalarna", 
        "country": "Sweden", 
        "population_proper": "", 
        "iso2": "SE", 
        "capital": "minor", 
        "lat": "60.35", 
        "lng": "15.75", 
        "population": ""
    }, 
    {
        "city": "Gnosjö",
        "admin": "Jönköping",
        "country": "Sweden", 
        "population_proper": "", 
        "iso2": "SE", 
        "capital": "minor", 
        "lat": "57.366667", 
        "lng": "13.733333", 
        "population": ""
    }, 
    {
        "city": "Gnesta", 
        "admin": "Södermanland",
        "country": "Sweden", 
        "population_proper": "", 
        "iso2": "SE", 
        "capital": "minor", 
        "lat": "59.05", 
        "lng": "17.3", 
        "population": ""
    }, 
    {
        "city": "Bromölla",
        "admin": "Skåne",
        "country": "Sweden", 
        "population_proper": "", 
        "iso2": "SE", 
        "capital": "minor", 
        "lat": "56.066667", 
        "lng": "14.466667", 
        "population": ""
    }, 
    {
        "city": "Nora", 
        "admin": "Örebro",
        "country": "Sweden", 
        "population_proper": "", 
        "iso2": "SE", 
        "capital": "minor", 
        "lat": "59.516667", 
        "lng": "15.033333", 
        "population": ""
    }, 
    {
        "city": "Gällivare",
        "admin": "Norrbotten", 
        "country": "Sweden", 
        "population_proper": "", 
        "iso2": "SE", 
        "capital": "minor", 
        "lat": "67.133333", 
        "lng": "20.7", 
        "population": ""
    }, 
    {
        "city": "Varberg", 
        "admin": "Halland", 
        "country": "Sweden", 
        "population_proper": "", 
        "iso2": "SE", 
        "capital": "minor", 
        "lat": "57.108586", 
        "lng": "12.266099", 
        "population": ""
    }, 
    {
        "city": "Ockelbo", 
        "admin": "Gävleborg",
        "country": "Sweden", 
        "population_proper": "", 
        "iso2": "SE", 
        "capital": "minor", 
        "lat": "60.883333", 
        "lng": "16.716667", 
        "population": ""
    }, 
    {
        "city": "Öckerö",
        "admin": "Västra Götaland",
        "country": "Sweden", 
        "population_proper": "", 
        "iso2": "SE", 
        "capital": "minor", 
        "lat": "57.708097", 
        "lng": "11.641298", 
        "population": ""
    }, 
    {
        "city": "Ängelholm",
        "admin": "Skåne",
        "country": "Sweden", 
        "population_proper": "", 
        "iso2": "SE", 
        "capital": "minor", 
        "lat": "56.25", 
        "lng": "12.866667", 
        "population": ""
    }, 
    {
        "city": "Vindeln", 
        "admin": "Västerbotten",
        "country": "Sweden", 
        "population_proper": "", 
        "iso2": "SE", 
        "capital": "minor", 
        "lat": "64.2", 
        "lng": "19.733333", 
        "population": ""
    }, 
    {
        "city": "Timrå",
        "admin": "Västernorrland",
        "country": "Sweden", 
        "population_proper": "", 
        "iso2": "SE", 
        "capital": "minor", 
        "lat": "62.477778", 
        "lng": "17.306944", 
        "population": ""
    }, 
    {
        "city": "Hörby",
        "admin": "Skåne",
        "country": "Sweden", 
        "population_proper": "", 
        "iso2": "SE", 
        "capital": "minor", 
        "lat": "55.85", 
        "lng": "13.65", 
        "population": ""
    }, 
    {
        "city": "Höör",
        "admin": "Skåne",
        "country": "Sweden", 
        "population_proper": "", 
        "iso2": "SE", 
        "capital": "minor", 
        "lat": "55.933333", 
        "lng": "13.533333", 
        "population": ""
    }, 
    {
        "city": "Sundbyberg", 
        "admin": "Stockholm", 
        "country": "Sweden", 
        "population_proper": "", 
        "iso2": "SE", 
        "capital": "minor", 
        "lat": "59.366667", 
        "lng": "17.966667", 
        "population": ""
    }, 
    {
        "city": "Vårgårda",
        "admin": "Västra Götaland",
        "country": "Sweden", 
        "population_proper": "", 
        "iso2": "SE", 
        "capital": "minor", 
        "lat": "58.033333", 
        "lng": "12.8", 
        "population": ""
    }, 
    {
        "city": "Bjuv", 
        "admin": "Skåne",
        "country": "Sweden", 
        "population_proper": "", 
        "iso2": "SE", 
        "capital": "minor", 
        "lat": "56.083333", 
        "lng": "12.9", 
        "population": ""
    }, 
    {
        "city": "Svedala", 
        "admin": "Skåne",
        "country": "Sweden", 
        "population_proper": "", 
        "iso2": "SE", 
        "capital": "minor", 
        "lat": "55.5", 
        "lng": "13.233333", 
        "population": ""
    }, 
    {
        "city": "Orsa", 
        "admin": "Dalarna", 
        "country": "Sweden", 
        "population_proper": "", 
        "iso2": "SE", 
        "capital": "minor", 
        "lat": "61.116667", 
        "lng": "14.616667", 
        "population": ""
    }, 
    {
        "city": "Piteå",
        "admin": "Norrbotten", 
        "country": "Sweden", 
        "population_proper": "", 
        "iso2": "SE", 
        "capital": "minor", 
        "lat": "65.333333", 
        "lng": "21.5", 
        "population": ""
    }, 
    {
        "city": "Arvidsjaur", 
        "admin": "Norrbotten", 
        "country": "Sweden", 
        "population_proper": "", 
        "iso2": "SE", 
        "capital": "minor", 
        "lat": "65.583333", 
        "lng": "19.166667", 
        "population": ""
    }, 
    {
        "city": "Aneby", 
        "admin": "Jönköping",
        "country": "Sweden", 
        "population_proper": "", 
        "iso2": "SE", 
        "capital": "minor", 
        "lat": "57.833333", 
        "lng": "14.8", 
        "population": ""
    }, 
    {
        "city": "Falköping",
        "admin": "Västra Götaland",
        "country": "Sweden", 
        "population_proper": "", 
        "iso2": "SE", 
        "capital": "minor", 
        "lat": "58.166667", 
        "lng": "13.55", 
        "population": ""
    }, 
    {
        "city": "Lund", 
        "admin": "Skåne",
        "country": "Sweden", 
        "population_proper": "", 
        "iso2": "SE", 
        "capital": "minor", 
        "lat": "55.7", 
        "lng": "13.183333", 
        "population": ""
    }, 
    {
        "city": "Olofström",
        "admin": "Blekinge", 
        "country": "Sweden", 
        "population_proper": "", 
        "iso2": "SE", 
        "capital": "minor", 
        "lat": "56.266667", 
        "lng": "14.5", 
        "population": ""
    }, 
    {
        "city": "Habo", 
        "admin": "Jönköping",
        "country": "Sweden", 
        "population_proper": "", 
        "iso2": "SE", 
        "capital": "minor", 
        "lat": "57.916667", 
        "lng": "14.066667", 
        "population": ""
    }, 
    {
        "city": "Pajala", 
        "admin": "Norrbotten", 
        "country": "Sweden", 
        "population_proper": "", 
        "iso2": "SE", 
        "capital": "minor", 
        "lat": "67.2", 
        "lng": "23.366667", 
        "population": ""
    }, 
    {
        "city": "Skutskär",
        "admin": "Uppsala", 
        "country": "Sweden", 
        "population_proper": "", 
        "iso2": "SE", 
        "capital": "minor", 
        "lat": "60.633333", 
        "lng": "17.416667", 
        "population": ""
    }, 
    {
        "city": "Täby",
        "admin": "Stockholm", 
        "country": "Sweden", 
        "population_proper": "", 
        "iso2": "SE", 
        "capital": "minor", 
        "lat": "59.5", 
        "lng": "18.05", 
        "population": ""
    }, 
    {
        "city": "Kävlinge",
        "admin": "Skåne",
        "country": "Sweden", 
        "population_proper": "", 
        "iso2": "SE", 
        "capital": "minor", 
        "lat": "55.8", 
        "lng": "13.1", 
        "population": ""
    }, 
    {
        "city": "Hultsfred", 
        "admin": "Kalmar", 
        "country": "Sweden", 
        "population_proper": "", 
        "iso2": "SE", 
        "capital": "minor", 
        "lat": "57.483333", 
        "lng": "15.833333", 
        "population": ""
    }, 
    {
        "city": "Avesta", 
        "admin": "Dalarna", 
        "country": "Sweden", 
        "population_proper": "", 
        "iso2": "SE", 
        "capital": "minor", 
        "lat": "60.15", 
        "lng": "16.2", 
        "population": ""
    }, 
    {
        "city": "Ånge",
        "admin": "Västernorrland",
        "country": "Sweden", 
        "population_proper": "", 
        "iso2": "SE", 
        "capital": "minor", 
        "lat": "62.516667", 
        "lng": "15.616667", 
        "population": ""
    }, 
    {
        "city": "Malå",
        "admin": "Västerbotten",
        "country": "Sweden", 
        "population_proper": "", 
        "iso2": "SE", 
        "capital": "minor", 
        "lat": "65.183333", 
        "lng": "18.75", 
        "population": ""
    }, 
    {
        "city": "Finspång",
        "admin": "Östergötland",
        "country": "Sweden", 
        "population_proper": "", 
        "iso2": "SE", 
        "capital": "minor", 
        "lat": "58.716667", 
        "lng": "15.783333", 
        "population": ""
    }, 
    {
        "city": "Borgholm", 
        "admin": "Kalmar", 
        "country": "Sweden", 
        "population_proper": "", 
        "iso2": "SE", 
        "capital": "minor", 
        "lat": "56.883333", 
        "lng": "16.65", 
        "population": ""
    }, 
    {
        "city": "Gustavsberg", 
        "admin": "Stockholm", 
        "country": "Sweden", 
        "population_proper": "", 
        "iso2": "SE", 
        "capital": "minor", 
        "lat": "59.316667", 
        "lng": "18.383333", 
        "population": ""
    }, 
    {
        "city": "Mullsjö",
        "admin": "Jönköping",
        "country": "Sweden", 
        "population_proper": "", 
        "iso2": "SE", 
        "capital": "minor", 
        "lat": "57.916667", 
        "lng": "13.883333", 
        "population": ""
    }, 
    {
        "city": "Grästorp",
        "admin": "Västra Götaland",
        "country": "Sweden", 
        "population_proper": "", 
        "iso2": "SE", 
        "capital": "minor", 
        "lat": "58.333333", 
        "lng": "12.683333", 
        "population": ""
    }, 
    {
        "city": "Åmål",
        "admin": "Västra Götaland",
        "country": "Sweden", 
        "population_proper": "", 
        "iso2": "SE", 
        "capital": "minor", 
        "lat": "59.05", 
        "lng": "12.7", 
        "population": ""
    }, 
    {
        "city": "Lindesberg", 
        "admin": "Örebro",
        "country": "Sweden", 
        "population_proper": "", 
        "iso2": "SE", 
        "capital": "minor", 
        "lat": "59.583333", 
        "lng": "15.25", 
        "population": ""
    }, 
    {
        "city": "Kinna", 
        "admin": "Västra Götaland",
        "country": "Sweden", 
        "population_proper": "", 
        "iso2": "SE", 
        "capital": "minor", 
        "lat": "57.5", 
        "lng": "12.683333", 
        "population": ""
    }, 
    {
        "city": "Sveg", 
        "admin": "Jämtland",
        "country": "Sweden", 
        "population_proper": "", 
        "iso2": "SE", 
        "capital": "minor", 
        "lat": "62.033333", 
        "lng": "14.35", 
        "population": ""
    }, 
    {
        "city": "Eskilstuna", 
        "admin": "Södermanland",
        "country": "Sweden", 
        "population_proper": "", 
        "iso2": "SE", 
        "capital": "minor", 
        "lat": "59.366667", 
        "lng": "16.5", 
        "population": ""
    }, 
    {
        "city": "Kumla", 
        "admin": "Örebro",
        "country": "Sweden", 
        "population_proper": "", 
        "iso2": "SE", 
        "capital": "minor", 
        "lat": "59.133333", 
        "lng": "15.133333", 
        "population": ""
    }, 
    {
        "city": "Köping",
        "admin": "Västmanland",
        "country": "Sweden", 
        "population_proper": "", 
        "iso2": "SE", 
        "capital": "minor", 
        "lat": "59.516667", 
        "lng": "16.0", 
        "population": ""
    }, 
    {
        "city": "Trelleborg", 
        "admin": "Skåne",
        "country": "Sweden", 
        "population_proper": "", 
        "iso2": "SE", 
        "capital": "minor", 
        "lat": "55.366667", 
        "lng": "13.166667", 
        "population": ""
    }, 
    {
        "city": "Grums", 
        "admin": "Värmland",
        "country": "Sweden", 
        "population_proper": "", 
        "iso2": "SE", 
        "capital": "minor", 
        "lat": "59.316667", 
        "lng": "13.1", 
        "population": ""
    }, 
    {
        "city": "Mellerud", 
        "admin": "Västra Götaland",
        "country": "Sweden", 
        "population_proper": "", 
        "iso2": "SE", 
        "capital": "minor", 
        "lat": "58.7", 
        "lng": "12.466667", 
        "population": ""
    }, 
    {
        "city": "Sala", 
        "admin": "Västmanland",
        "country": "Sweden", 
        "population_proper": "", 
        "iso2": "SE", 
        "capital": "minor", 
        "lat": "59.916667", 
        "lng": "16.6", 
        "population": ""
    }, 
    {
        "city": "Partille", 
        "admin": "Västra Götaland",
        "country": "Sweden", 
        "population_proper": "", 
        "iso2": "SE", 
        "capital": "minor", 
        "lat": "57.733333", 
        "lng": "12.116667", 
        "population": ""
    }, 
    {
        "city": "Kramfors", 
        "admin": "Västernorrland",
        "country": "Sweden", 
        "population_proper": "", 
        "iso2": "SE", 
        "capital": "minor", 
        "lat": "62.933333", 
        "lng": "17.7925", 
        "population": ""
    }, 
    {
        "city": "Sävsjö",
        "admin": "Jönköping",
        "country": "Sweden", 
        "population_proper": "", 
        "iso2": "SE", 
        "capital": "minor", 
        "lat": "57.4", 
        "lng": "14.666667", 
        "population": ""
    }, 
    {
        "city": "Härnösand",
        "admin": "Västernorrland",
        "country": "Sweden", 
        "population_proper": "", 
        "iso2": "SE", 
        "capital": "admin", 
        "lat": "62.636111", 
        "lng": "17.941111", 
        "population": ""
    }, 
    {
        "city": "Skövde",
        "admin": "Västra Götaland",
        "country": "Sweden", 
        "population_proper": "", 
        "iso2": "SE", 
        "capital": "minor", 
        "lat": "58.4", 
        "lng": "13.85", 
        "population": ""
    }, 
    {
        "city": "Jokkmokk", 
        "admin": "Norrbotten", 
        "country": "Sweden", 
        "population_proper": "", 
        "iso2": "SE", 
        "capital": "minor", 
        "lat": "66.604995", 
        "lng": "19.832866", 
        "population": ""
    }, 
    {
        "city": "Askersund", 
        "admin": "Örebro",
        "country": "Sweden", 
        "population_proper": "", 
        "iso2": "SE", 
        "capital": "minor", 
        "lat": "58.883333", 
        "lng": "14.9", 
        "population": ""
    }, 
    {
        "city": "Robertsfors", 
        "admin": "Västerbotten",
        "country": "Sweden", 
        "population_proper": "", 
        "iso2": "SE", 
        "capital": "minor", 
        "lat": "64.183333", 
        "lng": "20.85", 
        "population": ""
    }, 
    {
        "city": "Kiruna", 
        "admin": "Norrbotten", 
        "country": "Sweden", 
        "population_proper": "", 
        "iso2": "SE", 
        "capital": "minor", 
        "lat": "67.85", 
        "lng": "20.216667", 
        "population": ""
    }, 
    {
        "city": "Stenungsund", 
        "admin": "Västra Götaland",
        "country": "Sweden", 
        "population_proper": "", 
        "iso2": "SE", 
        "capital": "minor", 
        "lat": "58.083333", 
        "lng": "11.816667", 
        "population": ""
    }, 
    {
        "city": "Bålsta",
        "admin": "Uppsala", 
        "country": "Sweden", 
        "population_proper": "", 
        "iso2": "SE", 
        "capital": "minor", 
        "lat": "59.583333", 
        "lng": "17.5", 
        "population": ""
    }, 
    {
        "city": "Tingsryd", 
        "admin": "Kronoberg", 
        "country": "Sweden", 
        "population_proper": "", 
        "iso2": "SE", 
        "capital": "minor", 
        "lat": "56.533333", 
        "lng": "14.983333", 
        "population": ""
    }, 
    {
        "city": "Charlottenberg", 
        "admin": "Värmland",
        "country": "Sweden", 
        "population_proper": "", 
        "iso2": "SE", 
        "capital": "minor", 
        "lat": "59.883333", 
        "lng": "12.283333", 
        "population": ""
    }, 
    {
        "city": "Lidköping",
        "admin": "Västra Götaland",
        "country": "Sweden", 
        "population_proper": "", 
        "iso2": "SE", 
        "capital": "minor", 
        "lat": "58.5", 
        "lng": "13.166667", 
        "population": ""
    }, 
    {
        "city": "Kungshamn", 
        "admin": "Västra Götaland",
        "country": "Sweden", 
        "population_proper": "", 
        "iso2": "SE", 
        "capital": "minor", 
        "lat": "58.35", 
        "lng": "11.25", 
        "population": ""
    }, 
    {
        "city": "Heby", 
        "admin": "Uppsala", 
        "country": "Sweden", 
        "population_proper": "", 
        "iso2": "SE", 
        "capital": "minor", 
        "lat": "59.933333", 
        "lng": "16.883333", 
        "population": ""
    }, 
    {
        "city": "Färgelanda",
        "admin": "Västra Götaland",
        "country": "Sweden", 
        "population_proper": "", 
        "iso2": "SE", 
        "capital": "minor", 
        "lat": "58.566667", 
        "lng": "12.0", 
        "population": ""
    }, 
    {
        "city": "Mjölby",
        "admin": "Östergötland",
        "country": "Sweden", 
        "population_proper": "", 
        "iso2": "SE", 
        "capital": "minor", 
        "lat": "58.316667", 
        "lng": "15.133333", 
        "population": ""
    }, 
    {
        "city": "Åkersberga",
        "admin": "Stockholm", 
        "country": "Sweden", 
        "population_proper": "", 
        "iso2": "SE", 
        "capital": "minor", 
        "lat": "59.483333", 
        "lng": "18.3", 
        "population": ""
    }, 
    {
        "city": "Lilla Edet", 
        "admin": "Västra Götaland",
        "country": "Sweden", 
        "population_proper": "", 
        "iso2": "SE", 
        "capital": "minor", 
        "lat": "58.133333", 
        "lng": "12.133333", 
        "population": ""
    }, 
    {
        "city": "Karlstad", 
        "admin": "Värmland",
        "country": "Sweden", 
        "population_proper": "", 
        "iso2": "SE", 
        "capital": "admin", 
        "lat": "59.366667", 
        "lng": "13.5", 
        "population": ""
    }, 
    {
        "city": "Lessebo", 
        "admin": "Kronoberg", 
        "country": "Sweden", 
        "population_proper": "", 
        "iso2": "SE", 
        "capital": "minor", 
        "lat": "56.75", 
        "lng": "15.266667", 
        "population": ""
    }, 
    {
        "city": "Flen", 
        "admin": "Södermanland",
        "country": "Sweden", 
        "population_proper": "", 
        "iso2": "SE", 
        "capital": "minor", 
        "lat": "59.066667", 
        "lng": "16.583333", 
        "population": ""
    }, 
    {
        "city": "Dorotea", 
        "admin": "Västerbotten",
        "country": "Sweden", 
        "population_proper": "", 
        "iso2": "SE", 
        "capital": "minor", 
        "lat": "64.266667", 
        "lng": "16.4", 
        "population": ""
    }, 
    {
        "city": "Mora", 
        "admin": "Dalarna", 
        "country": "Sweden", 
        "population_proper": "", 
        "iso2": "SE", 
        "capital": "minor", 
        "lat": "61.0", 
        "lng": "14.55", 
        "population": ""
    }, 
    {
        "city": "Arlöv",
        "admin": "Skåne",
        "country": "Sweden", 
        "population_proper": "", 
        "iso2": "SE", 
        "capital": "minor", 
        "lat": "55.633333", 
        "lng": "13.066667", 
        "population": ""
    }, 
    {
        "city": "Krokom", 
        "admin": "Jämtland",
        "country": "Sweden", 
        "population_proper": "", 
        "iso2": "SE", 
        "capital": "minor", 
        "lat": "63.333333", 
        "lng": "14.45", 
        "population": ""
    }, 
    {
        "city": "Svenstavik", 
        "admin": "Jämtland",
        "country": "Sweden", 
        "population_proper": "", 
        "iso2": "SE", 
        "capital": "minor", 
        "lat": "62.766667", 
        "lng": "14.45", 
        "population": ""
    }, 
    {
        "city": "Malung", 
        "admin": "Dalarna", 
        "country": "Sweden", 
        "population_proper": "", 
        "iso2": "SE", 
        "capital": "minor", 
        "lat": "60.666667", 
        "lng": "13.7", 
        "population": ""
    }, 
    {
        "city": "Sjöbo",
        "admin": "Skåne",
        "country": "Sweden", 
        "population_proper": "", 
        "iso2": "SE", 
        "capital": "minor", 
        "lat": "55.633333", 
        "lng": "13.7", 
        "population": ""
    }, 
    {
        "city": "Landskrona", 
        "admin": "Skåne",
        "country": "Sweden", 
        "population_proper": "", 
        "iso2": "SE", 
        "capital": "minor", 
        "lat": "55.866667", 
        "lng": "12.833333", 
        "population": ""
    }, 
    {
        "city": "Nordmaling", 
        "admin": "Västerbotten",
        "country": "Sweden", 
        "population_proper": "", 
        "iso2": "SE", 
        "capital": "minor", 
        "lat": "63.566667", 
        "lng": "19.5", 
        "population": ""
    }, 
    {
        "city": "Västervik",
        "admin": "Kalmar", 
        "country": "Sweden", 
        "population_proper": "", 
        "iso2": "SE", 
        "capital": "minor", 
        "lat": "57.75", 
        "lng": "16.633333", 
        "population": ""
    }, 
    {
        "city": "Övertorneå",
        "admin": "Norrbotten", 
        "country": "Sweden", 
        "population_proper": "", 
        "iso2": "SE", 
        "capital": "minor", 
        "lat": "66.38658", 
        "lng": "23.661818", 
        "population": ""
    }, 
    {
        "city": "Nybro", 
        "admin": "Kalmar", 
        "country": "Sweden", 
        "population_proper": "", 
        "iso2": "SE", 
        "capital": "minor", 
        "lat": "56.75", 
        "lng": "15.9", 
        "population": ""
    }, 
    {
        "city": "Söderhamn",
        "admin": "Gävleborg",
        "country": "Sweden", 
        "population_proper": "", 
        "iso2": "SE", 
        "capital": "minor", 
        "lat": "61.3", 
        "lng": "17.05", 
        "population": ""
    }, 
    {
        "city": "Kisa", 
        "admin": "Östergötland",
        "country": "Sweden", 
        "population_proper": "", 
        "iso2": "SE", 
        "capital": "minor", 
        "lat": "57.983333", 
        "lng": "15.616667", 
        "population": ""
    }, 
    {
        "city": "Hjo", 
        "admin": "Västra Götaland",
        "country": "Sweden", 
        "population_proper": "", 
        "iso2": "SE", 
        "capital": "minor", 
        "lat": "58.3", 
        "lng": "14.283333", 
        "population": ""
    }, 
    {
        "city": "Oskarshamn", 
        "admin": "Kalmar", 
        "country": "Sweden", 
        "population_proper": "", 
        "iso2": "SE", 
        "capital": "minor", 
        "lat": "57.266667", 
        "lng": "16.433333", 
        "population": ""
    }, 
    {
        "city": "Torsby", 
        "admin": "Värmland",
        "country": "Sweden", 
        "population_proper": "", 
        "iso2": "SE", 
        "capital": "minor", 
        "lat": "60.133333", 
        "lng": "13.0", 
        "population": ""
    }, 
    {
        "city": "Vellinge", 
        "admin": "Skåne",
        "country": "Sweden", 
        "population_proper": "", 
        "iso2": "SE", 
        "capital": "minor", 
        "lat": "55.466667", 
        "lng": "13.016667", 
        "population": ""
    }, 
    {
        "city": "Klippan", 
        "admin": "Skåne",
        "country": "Sweden", 
        "population_proper": "", 
        "iso2": "SE", 
        "capital": "minor", 
        "lat": "56.133333", 
        "lng": "13.133333", 
        "population": ""
    }, 
    {
        "city": "Trosa", 
        "admin": "Södermanland",
        "country": "Sweden", 
        "population_proper": "", 
        "iso2": "SE", 
        "capital": "minor", 
        "lat": "58.9", 
        "lng": "17.55", 
        "population": ""
    }
]
